{
    "jamrequestmodule.Instrument": [
        { "name": "Guitar", "type": "String" },
        { "name": "Piano", "type": "Keyboard" },
        { "name": "Drums", "type": "Percussion" },
        { "name": "Bass", "type": "String" },
        { "name": "Violin", "type": "String" },
        { "name": "Trumpet", "type": "Brass" },
        { "name": "Saxophone", "type": "Woodwind" },
        { "name": "Flute", "type": "Woodwind" },
        { "name": "Violin", "type": "String" },
        { "name": "Clarinet", "type": "Woodwind" },
        { "name": "Harmonica", "type": "Wind" },
        { "name": "Banjo", "type": "String" },
        { "name": "Mandolin", "type": "String" },
        { "name": "Harp", "type": "String" },
        { "name": "Accordion", "type": "Keyboard" },
        { "name": "Trombone", "type": "Brass" },
        { "name": "Viola", "type": "String" },
        { "name": "French horn", "type": "Brass" },
        { "name": "Oboe", "type": "Woodwind" },
        { "name": "Bagpipes", "type": "Wind" },
        { "name": "Ukulele", "type": "String" },
        { "name": "Sitar", "type": "String" },
        { "name": "Didgeridoo", "type": "Percussion" },
        { "name": "Tabla", "type": "Percussion" }

    ],
    "jamrequestmodule.User": [
        { "fname": "John", "lname": "Smith", "street": "123 Main St", "city": "Anytown", "state": "CA", "zipcode": "12345", "phone": "555-555-5555", "email": "john.smith@example.com" },
        { "fname": "Jane", "lname": "Doe", "street": "456 Park Ave", "city": "Anytown", "state": "CA", "zipcode": "67890", "phone": "555-555-5555", "email": "jane.doe@example.com" },
        { "fname": "Bob", "lname": "Johnson", "street": "789 Elm St", "city": "Anytown", "state": "NY", "zipcode": "09876", "phone": "555-555-5555", "email": "bob.johnson@example.com" },
        { "fname": "Samantha", "lname": "Williams", "street": "321 Oak St", "city": "Anytown", "state": "FL", "zipcode": "54321", "phone": "555-555-5555", "email": "samantha.williams@example.com" },
        { "fname": "Michael", "lname": "Brown", "street": "654 Pine St", "city": "Anytown", "state": "TX", "zipcode": "67890", "phone": "555-555-5555", "email": "michael.brown@example.com" },
        { "fname": "Ashley", "lname": "Jones", "street": "987 Cedar St", "city": "Anytown", "state": "IL", "zipcode": "13579", "phone": "555-555-5555", "email": "ashley.jones@example.com" },
        { "fname": "Joshua", "lname": "Miller", "street": "246 Birch St", "city": "Anytown", "state": "PA", "zipcode": "24680", "phone": "555-555-5555", "email": "joshua.miller@example.com" },
        { "fname": "Jessica", "lname": "Davis", "street": "369 Maple St", "city": "Anytown", "state": "OH", "zipcode": "36912", "phone": "555-555-5555", "email": "jessica.davis@example.com" },
        { "fname": "Jacob", "lname": "Garcia", "street": "159 Willow St", "city": "Anytown", "state": "NC", "zipcode": "15935", "phone": "555-555-5555", "email": "jacob.garcia@example.com" },
        { "fname": "Amanda", "lname": "Rodriguez", "street": "753 Oak St", "city": "Anytown", "state": "WA", "zipcode": "753", "phone": "555-555-5555", "email": "amanda.rodriguez@example.com" }

    ],
    "jamrequestmodule.ExperienceLevel": [
        { "level": "Beginner" },
        { "level": "Intermediate" },
        { "level": "Advanced" }
    ],
    "jamrequestmodule.MusicGenre": [
        { "genre": "Rock" },
        { "genre": "Jazz" },
        { "genre": "Blues" },
        { "genre": "Pop" },
        { "genre": "Country" },
        { "genre": "Hip-Hop" },
        { "genre": "Rap" },
        { "genre": "Electronic" },
        { "genre": "R&B" },
        { "genre": "Funk" },
        { "genre": "Soul" },
        { "genre": "Folk" },
        { "genre": "Reggae" },
        { "genre": "Classical" },
        { "genre": "Opera" },
        { "genre": "Metal" },
        { "genre": "Punk" },
        { "genre": "Grindcore" },
        { "genre": "Hardcore" },
        { "genre": "Grunge" },
        { "genre": "Alternative" },
        { "genre": "Indie" },
        { "genre": "Ska" },
        { "genre": "World" },
        { "genre": "Latin" },
        { "genre": "Afrobeat" },
        { "genre": "Swing" },
        { "genre": "Bluegrass" },
        { "genre": "Gospel" },
        { "genre": "Celtic" },
        { "genre": "K-Pop" },
        { "genre": "J-Pop" },
        { "genre": "Bossa Nova" },
        { "genre": "Cumbia" },
        { "genre": "Salsa" },
        { "genre": "Reggaeton" },
        { "genre": "Dubstep" },
        { "genre": "Trance" },
        { "genre": "Ambient" },
        { "genre": "House" },
        { "genre": "Techno" },
        { "genre": "Garage" },
        { "genre": "Drum and Bass" },
        { "genre": "Breakbeat" },
        { "genre": "Trip-Hop" },
        { "genre": "Disco" },
        { "genre": "New Age" }
    ],
    "jamrequestmodule.UserInstrument": [
        { "user": 1, "instrument": 1, "exp_level": 2 },
        { "user": 2, "instrument": 2, "exp_level": 1 },
        { "user": 1, "instrument": 1, "exp_level": 2 },
        { "user": 2, "instrument": 2, "exp_level": 1 },
        { "user": 3, "instrument": 3, "exp_level": 1 },
        { "user": 3, "instrument": 4, "exp_level": 1 },
        { "user": 5, "instrument": 5, "exp_level": 1 },
        { "user": 6, "instrument": 6, "exp_level": 2 },
        { "user": 7, "instrument": 7, "exp_level": 2 },
        { "user": 8, "instrument": 8, "exp_level": 2 },
        { "user": 2, "instrument": 9, "exp_level": 2 },
        { "user": 2, "instrument": 10, "exp_level": 2 },
        { "user": 2, "instrument": 11, "exp_level": 2 },
        { "user": 3, "instrument": 12, "exp_level": 3 },
        { "user": 3, "instrument": 13, "exp_level": 3 },
        { "user": 3, "instrument": 14, "exp_level": 3 },
        { "user": 3, "instrument": 15, "exp_level": 1 },
        { "user": 4, "instrument": 16, "exp_level": 1 },
        { "user": 4, "instrument": 17, "exp_level": 2 },
        { "user": 4, "instrument": 18, "exp_level": 2 },
        { "user": 4, "instrument": 19, "exp_level": 3 },
        { "user": 4, "instrument": 20, "exp_level": 3 },
        { "user": 5, "instrument": 21, "exp_level": 1 },
        { "user": 5, "instrument": 2, "exp_level": 1 },
        { "user": 5, "instrument": 3, "exp_level": 1 },
        { "user": 5, "instrument": 4, "exp_level": 1 },
        { "user": 6, "instrument": 5, "exp_level": 1 },
        { "user": 6, "instrument": 6, "exp_level": 3 },
        { "user": 6, "instrument": 7, "exp_level": 3 },
        { "user": 7, "instrument": 8, "exp_level": 2 },
        { "user": 7, "instrument": 9, "exp_level": 2 },
        { "user": 7, "instrument": 0, "exp_level": 1 },
        { "user": 8, "instrument": 1, "exp_level": 1 },
        { "user": 8, "instrument": 2, "exp_level": 3 },
        { "user": 8, "instrument": 3, "exp_level": 3 },
        { "user": 8, "instrument": 4, "exp_level": 2 },
        { "user": 8, "instrument": 5, "exp_level": 2 },
        { "user": 9, "instrument": 6, "exp_level": 2 }
    ],
    "jamrequestmodule.UserGenre": [
        { "user": 1, "genre": 1 },
        { "user": 2, "genre": 3 },
        { "user": 3, "genre": 2 },
        { "user": 4, "genre": 1 },
        { "user": 4, "genre": 4 },
        { "user": 5, "genre": 5 },
        { "user": 6, "genre": 2 },
        { "user": 7, "genre": 3 },
        { "user": 8, "genre": 6 },
        { "user": 9, "genre": 7 },
        { "user": 1, "genre": 2 },
        { "user": 2, "genre": 3 },
        { "user": 3, "genre": 4 },
        { "user": 4, "genre": 5 },
        { "user": 5, "genre": 6 },
        { "user": 6, "genre": 7 },
        { "user": 7, "genre": 8 },
        { "user": 8, "genre": 9 },
        { "user": 9, "genre": 10 },
        { "user": 0, "genre": 11 },
        { "user": 1, "genre": 12 },
        { "user": 2, "genre": 13 },
        { "user": 3, "genre": 14 },
        { "user": 4, "genre": 15 },
        { "user": 5, "genre": 16 },
        { "user": 6, "genre": 17 },
        { "user": 7, "genre": 18 },
        { "user": 8, "genre": 19 },
        { "user": 9, "genre": 10 },
        { "user": 1, "genre": 22 },
        { "user": 2, "genre": 23 },
        { "user": 3, "genre": 24 },
        { "user": 4, "genre": 25 },
        { "user": 5, "genre": 26 },
        { "user": 6, "genre": 27 },
        { "user": 7, "genre": 28 },
        { "user": 8, "genre": 29 },
        { "user": 9, "genre": 21 },
        { "user": 1, "genre": 1 },
        { "user": 1, "genre": 2 },
        { "user": 2, "genre": 3 },
        { "user": 2, "genre": 4 },
        { "user": 4, "genre": 5 },
        { "user": 5, "genre": 6 },
        { "user": 6, "genre": 7 },
        { "user": 7, "genre": 8 },
        { "user": 8, "genre": 9 },
        { "user": 9, "genre": 10 },
        { "user": 5, "genre": 1 }
    ],
    "jamrequestmodule.JamRequest": [
        { "user": 1, "instrument": 1, "genre": 1, "location": "Anytown", "exp_level": 2, "status": "Open" },
        { "user": 2, "instrument": 2, "genre": 3, "location": "Anytown", "exp_level": 1, "status": "Open" }
    ],
    "jamrequestmodule.JamResponse": [
        { "jam_request": 1, "user": 2, "note": "I'm interested in jamming with you!", "status": "Open" },
        { "jam_request": 2, "user": 1, "note": "Sounds like fun, let's do it!", "status": "Open" }
    ],
    "jamrequestmodule.UserReview": [
        { "user": 1, "reviewer": 2, "created": "2022-01-01T00:00:00Z", "rating": 4, "review": "John is a great musician and a pleasure to play with." },
        { "user": 2, "reviewer": 1, "created": "2022-01-01T00:00:00Z", "rating": 5, "review": "Jane is an amazing pianist and a true professional." }
    ],
    "jamrequestmodule.UserMedia": [{
            "user": 1,
            "type": "V",
            "location": "https://jamrequestmodule.com/user1_video.mp4",
            "seconds": 180
        },
        {
            "user": 2,
            "type": "A",
            "location": "https://jamrequestmodule.com/user2_audio.mp3",
            "seconds": 120
        },
        {
            "user": 3,
            "type": "V",
            "location": "https://jamrequestmodule.com/user3_video.mp4",
            "seconds": 240
        }
    ]
}